[
  {
    "city": "Tunis", 
    "lat": "36.8008", 
    "lng": "10.1800", 
    "country": "Tunisia", 
    "iso2": "TN", 
    "admin_name": "Tunis", 
    "capital": "primary", 
    "population": "1056247", 
    "population_proper": "1056247"
  }, 
  {
    "city": "Sfax", 
    "lat": "34.7400", 
    "lng": "10.7600", 
    "country": "Tunisia", 
    "iso2": "TN", 
    "admin_name": "Sfax", 
    "capital": "admin", 
    "population": "272801", 
    "population_proper": "272801"
  }, 
  {
    "city": "Sousse", 
    "lat": "35.8333", 
    "lng": "10.6333", 
    "country": "Tunisia", 
    "iso2": "TN", 
    "admin_name": "Sousse", 
    "capital": "admin", 
    "population": "221530", 
    "population_proper": "221530"
  }, 
  {
    "city": "Kairouan", 
    "lat": "35.6833", 
    "lng": "10.1000", 
    "country": "Tunisia", 
    "iso2": "TN", 
    "admin_name": "Kairouan", 
    "capital": "admin", 
    "population": "186653", 
    "population_proper": "186653"
  }, 
  {
    "city": "Métouia", 
    "lat": "33.9600", 
    "lng": "10.0000", 
    "country": "Tunisia", 
    "iso2": "TN", 
    "admin_name": "Gabès", 
    "capital": "", 
    "population": "170000", 
    "population_proper": "170000"
  }, 
  {
    "city": "Kebili", 
    "lat": "33.7050", 
    "lng": "8.9650", 
    "country": "Tunisia", 
    "iso2": "TN", 
    "admin_name": "Kébili", 
    "capital": "admin", 
    "population": "163257", 
    "population_proper": "163257"
  }, 
  {
    "city": "Bizerte", 
    "lat": "37.2744", 
    "lng": "9.8739", 
    "country": "Tunisia", 
    "iso2": "TN", 
    "admin_name": "Bizerte", 
    "capital": "admin", 
    "population": "142966", 
    "population_proper": "142966"
  }, 
  {
    "city": "Sidi Bouzid", 
    "lat": "35.0381", 
    "lng": "9.4858", 
    "country": "Tunisia", 
    "iso2": "TN", 
    "admin_name": "Sidi Bouzid", 
    "capital": "admin", 
    "population": "122676", 
    "population_proper": "122676"
  }, 
  {
    "city": "Gabès", 
    "lat": "33.8814", 
    "lng": "10.0983", 
    "country": "Tunisia", 
    "iso2": "TN", 
    "admin_name": "Gabès", 
    "capital": "admin", 
    "population": "116323", 
    "population_proper": "116323"
  }, 
  {
    "city": "Ariana", 
    "lat": "36.8625", 
    "lng": "10.1956", 
    "country": "Tunisia", 
    "iso2": "TN", 
    "admin_name": "L’Ariana", 
    "capital": "admin", 
    "population": "114486", 
    "population_proper": "114486"
  }, 
  {
    "city": "Jendouba", 
    "lat": "36.5011", 
    "lng": "8.7803", 
    "country": "Tunisia", 
    "iso2": "TN", 
    "admin_name": "Jendouba", 
    "capital": "admin", 
    "population": "113116", 
    "population_proper": "113116"
  }, 
  {
    "city": "Gafsa", 
    "lat": "34.4167", 
    "lng": "8.7833", 
    "country": "Tunisia", 
    "iso2": "TN", 
    "admin_name": "Gafsa", 
    "capital": "admin", 
    "population": "111170", 
    "population_proper": "111170"
  }, 
  {
    "city": "Msaken", 
    "lat": "35.7333", 
    "lng": "10.5833", 
    "country": "Tunisia", 
    "iso2": "TN", 
    "admin_name": "Sousse", 
    "capital": "", 
    "population": "110000", 
    "population_proper": "110000"
  }, 
  {
    "city": "Medenine", 
    "lat": "33.3547", 
    "lng": "10.5053", 
    "country": "Tunisia", 
    "iso2": "TN", 
    "admin_name": "Médenine", 
    "capital": "admin", 
    "population": "109409", 
    "population_proper": "109409"
  }, 
  {
    "city": "Béja", 
    "lat": "36.7256", 
    "lng": "9.1817", 
    "country": "Tunisia", 
    "iso2": "TN", 
    "admin_name": "Béja", 
    "capital": "admin", 
    "population": "109299", 
    "population_proper": "109299"
  }, 
  {
    "city": "Kasserine", 
    "lat": "35.1667", 
    "lng": "8.8333", 
    "country": "Tunisia", 
    "iso2": "TN", 
    "admin_name": "Kasserine", 
    "capital": "admin", 
    "population": "108794", 
    "population_proper": "108794"
  }, 
  {
    "city": "Monastir", 
    "lat": "35.7780", 
    "lng": "10.8262", 
    "country": "Tunisia", 
    "iso2": "TN", 
    "admin_name": "Monastir", 
    "capital": "admin", 
    "population": "104535", 
    "population_proper": "104535"
  }, 
  {
    "city": "Hammamet", 
    "lat": "36.4167", 
    "lng": "10.6000", 
    "country": "Tunisia", 
    "iso2": "TN", 
    "admin_name": "Nabeul", 
    "capital": "", 
    "population": "97579", 
    "population_proper": "97579"
  }, 
  {
    "city": "Tataouine", 
    "lat": "32.9333", 
    "lng": "10.4500", 
    "country": "Tunisia", 
    "iso2": "TN", 
    "admin_name": "Tataouine", 
    "capital": "admin", 
    "population": "95775", 
    "population_proper": "95775"
  }, 
  {
    "city": "La Marsa", 
    "lat": "36.8764", 
    "lng": "10.3253", 
    "country": "Tunisia", 
    "iso2": "TN", 
    "admin_name": "Tunis", 
    "capital": "", 
    "population": "92987", 
    "population_proper": "92987"
  }, 
  {
    "city": "Ben Arous", 
    "lat": "36.7531", 
    "lng": "10.2189", 
    "country": "Tunisia", 
    "iso2": "TN", 
    "admin_name": "Ben Arous", 
    "capital": "admin", 
    "population": "88322", 
    "population_proper": "88322"
  }, 
  {
    "city": "Sakiet ez Zit", 
    "lat": "34.8000", 
    "lng": "10.7700", 
    "country": "Tunisia", 
    "iso2": "TN", 
    "admin_name": "Sfax", 
    "capital": "", 
    "population": "87512", 
    "population_proper": "87512"
  }, 
  {
    "city": "Zarzis", 
    "lat": "33.5000", 
    "lng": "11.1167", 
    "country": "Tunisia", 
    "iso2": "TN", 
    "admin_name": "Médenine", 
    "capital": "", 
    "population": "80000", 
    "population_proper": "80000"
  }, 
  {
    "city": "Ben Gardane", 
    "lat": "33.1389", 
    "lng": "11.2167", 
    "country": "Tunisia", 
    "iso2": "TN", 
    "admin_name": "Médenine", 
    "capital": "", 
    "population": "79912", 
    "population_proper": "79912"
  }, 
  {
    "city": "Mahdia", 
    "lat": "35.5047", 
    "lng": "11.0622", 
    "country": "Tunisia", 
    "iso2": "TN", 
    "admin_name": "Mahdia", 
    "capital": "admin", 
    "population": "79545", 
    "population_proper": "79545"
  }, 
  {
    "city": "Houmt Souk", 
    "lat": "33.8667", 
    "lng": "10.8500", 
    "country": "Tunisia", 
    "iso2": "TN", 
    "admin_name": "Médenine", 
    "capital": "", 
    "population": "75904", 
    "population_proper": "75904"
  }, 
  {
    "city": "Fouchana", 
    "lat": "36.6987", 
    "lng": "10.1693", 
    "country": "Tunisia", 
    "iso2": "TN", 
    "admin_name": "Ben Arous", 
    "capital": "", 
    "population": "74868", 
    "population_proper": "74868"
  }, 
  {
    "city": "Le Kram", 
    "lat": "36.8333", 
    "lng": "10.3167", 
    "country": "Tunisia", 
    "iso2": "TN", 
    "admin_name": "Tunis", 
    "capital": "", 
    "population": "74132", 
    "population_proper": "74132"
  }, 
  {
    "city": "Le Bardo", 
    "lat": "36.8092", 
    "lng": "10.1406", 
    "country": "Tunisia", 
    "iso2": "TN", 
    "admin_name": "Tunis", 
    "capital": "", 
    "population": "73953", 
    "population_proper": "73953"
  }, 
  {
    "city": "El Kef", 
    "lat": "36.1667", 
    "lng": "8.7000", 
    "country": "Tunisia", 
    "iso2": "TN", 
    "admin_name": "Kef", 
    "capital": "admin", 
    "population": "73706", 
    "population_proper": "73706"
  }, 
  {
    "city": "El Hamma", 
    "lat": "33.8864", 
    "lng": "9.7951", 
    "country": "Tunisia", 
    "iso2": "TN", 
    "admin_name": "Gabès", 
    "capital": "", 
    "population": "73512", 
    "population_proper": "73512"
  }, 
  {
    "city": "Nabeul", 
    "lat": "36.4514", 
    "lng": "10.7361", 
    "country": "Tunisia", 
    "iso2": "TN", 
    "admin_name": "Nabeul", 
    "capital": "admin", 
    "population": "73128", 
    "population_proper": "73128"
  }, 
  {
    "city": "Djemmal", 
    "lat": "35.6400", 
    "lng": "10.7600", 
    "country": "Tunisia", 
    "iso2": "TN", 
    "admin_name": "Monastir", 
    "capital": "", 
    "population": "70587", 
    "population_proper": "70587"
  }, 
  {
    "city": "Korba", 
    "lat": "36.5667", 
    "lng": "10.8667", 
    "country": "Tunisia", 
    "iso2": "TN", 
    "admin_name": "Nabeul", 
    "capital": "", 
    "population": "68966", 
    "population_proper": "68966"
  }, 
  {
    "city": "Menzel Temime", 
    "lat": "36.7833", 
    "lng": "10.9833", 
    "country": "Tunisia", 
    "iso2": "TN", 
    "admin_name": "Nabeul", 
    "capital": "", 
    "population": "65645", 
    "population_proper": "65645"
  }, 
  {
    "city": "Ghardimaou", 
    "lat": "36.4503", 
    "lng": "8.4397", 
    "country": "Tunisia", 
    "iso2": "TN", 
    "admin_name": "Jendouba", 
    "capital": "", 
    "population": "64170", 
    "population_proper": "64170"
  }, 
  {
    "city": "Menzel Bourguiba", 
    "lat": "37.1500", 
    "lng": "9.7833", 
    "country": "Tunisia", 
    "iso2": "TN", 
    "admin_name": "Bizerte", 
    "capital": "", 
    "population": "61919", 
    "population_proper": "61919"
  }, 
  {
    "city": "Radès", 
    "lat": "36.7667", 
    "lng": "10.2833", 
    "country": "Tunisia", 
    "iso2": "TN", 
    "admin_name": "Ben Arous", 
    "capital": "", 
    "population": "59998", 
    "population_proper": "59998"
  }, 
  {
    "city": "Manouba", 
    "lat": "36.8000", 
    "lng": "10.1000", 
    "country": "Tunisia", 
    "iso2": "TN", 
    "admin_name": "Manouba", 
    "capital": "admin", 
    "population": "58792", 
    "population_proper": "58792"
  }, 
  {
    "city": "Kélibia", 
    "lat": "36.8475", 
    "lng": "11.0939", 
    "country": "Tunisia", 
    "iso2": "TN", 
    "admin_name": "Nabeul", 
    "capital": "", 
    "population": "58491", 
    "population_proper": "58491"
  }, 
  {
    "city": "Rass el Djebel", 
    "lat": "37.2150", 
    "lng": "10.1200", 
    "country": "Tunisia", 
    "iso2": "TN", 
    "admin_name": "Bizerte", 
    "capital": "", 
    "population": "58241", 
    "population_proper": "58241"
  }, 
  {
    "city": "Tebourba", 
    "lat": "36.8295", 
    "lng": "9.8411", 
    "country": "Tunisia", 
    "iso2": "TN", 
    "admin_name": "Manouba", 
    "capital": "", 
    "population": "50458", 
    "population_proper": "50458"
  }, 
  {
    "city": "El Jem", 
    "lat": "35.3000", 
    "lng": "10.7167", 
    "country": "Tunisia", 
    "iso2": "TN", 
    "admin_name": "Mahdia", 
    "capital": "", 
    "population": "48611", 
    "population_proper": "48611"
  }, 
  {
    "city": "Douz", 
    "lat": "33.4572", 
    "lng": "9.0258", 
    "country": "Tunisia", 
    "iso2": "TN", 
    "admin_name": "Kébili", 
    "capital": "", 
    "population": "47182", 
    "population_proper": "47182"
  }, 
  {
    "city": "Hammam Sousse", 
    "lat": "35.8589", 
    "lng": "10.5939", 
    "country": "Tunisia", 
    "iso2": "TN", 
    "admin_name": "Sousse", 
    "capital": "", 
    "population": "42691", 
    "population_proper": "42691"
  }, 
  {
    "city": "Hammam-Lif", 
    "lat": "36.7308", 
    "lng": "10.3275", 
    "country": "Tunisia", 
    "iso2": "TN", 
    "admin_name": "Ben Arous", 
    "capital": "", 
    "population": "42518", 
    "population_proper": "42518"
  }, 
  {
    "city": "Sbiba", 
    "lat": "35.5433", 
    "lng": "9.0736", 
    "country": "Tunisia", 
    "iso2": "TN", 
    "admin_name": "Kasserine", 
    "capital": "", 
    "population": "42091", 
    "population_proper": "42091"
  }, 
  {
    "city": "Sejenane", 
    "lat": "37.0564", 
    "lng": "9.2382", 
    "country": "Tunisia", 
    "iso2": "TN", 
    "admin_name": "Bizerte", 
    "capital": "", 
    "population": "40166", 
    "population_proper": "40166"
  }, 
  {
    "city": "Tozeur", 
    "lat": "33.9197", 
    "lng": "8.1336", 
    "country": "Tunisia", 
    "iso2": "TN", 
    "admin_name": "Tozeur", 
    "capital": "admin", 
    "population": "37365", 
    "population_proper": "37365"
  }, 
  {
    "city": "Dar Chabanne", 
    "lat": "36.4700", 
    "lng": "10.7500", 
    "country": "Tunisia", 
    "iso2": "TN", 
    "admin_name": "Nabeul", 
    "capital": "", 
    "population": "35859", 
    "population_proper": "35859"
  }, 
  {
    "city": "Aïne Draham", 
    "lat": "36.7833", 
    "lng": "8.7000", 
    "country": "Tunisia", 
    "iso2": "TN", 
    "admin_name": "Jendouba", 
    "capital": "", 
    "population": "35400", 
    "population_proper": "35400"
  }, 
  {
    "city": "Bou Salem", 
    "lat": "36.6111", 
    "lng": "8.9698", 
    "country": "Tunisia", 
    "iso2": "TN", 
    "admin_name": "Jendouba", 
    "capital": "", 
    "population": "35192", 
    "population_proper": "35192"
  }, 
  {
    "city": "Ez Zahra", 
    "lat": "36.7439", 
    "lng": "10.3083", 
    "country": "Tunisia", 
    "iso2": "TN", 
    "admin_name": "Ben Arous", 
    "capital": "", 
    "population": "34962", 
    "population_proper": "34962"
  }, 
  {
    "city": "Skhira", 
    "lat": "34.3006", 
    "lng": "10.0708", 
    "country": "Tunisia", 
    "iso2": "TN", 
    "admin_name": "Sfax", 
    "capital": "", 
    "population": "34511", 
    "population_proper": "34511"
  }, 
  {
    "city": "Akouda", 
    "lat": "35.8712", 
    "lng": "10.5712", 
    "country": "Tunisia", 
    "iso2": "TN", 
    "admin_name": "Sousse", 
    "capital": "", 
    "population": "34494", 
    "population_proper": "34494"
  }, 
  {
    "city": "Mateur", 
    "lat": "37.0400", 
    "lng": "9.6650", 
    "country": "Tunisia", 
    "iso2": "TN", 
    "admin_name": "Bizerte", 
    "capital": "", 
    "population": "32546", 
    "population_proper": "32546"
  }, 
  {
    "city": "Rhennouch", 
    "lat": "33.9397", 
    "lng": "10.0650", 
    "country": "Tunisia", 
    "iso2": "TN", 
    "admin_name": "Gabès", 
    "capital": "", 
    "population": "28051", 
    "population_proper": "28051"
  }, 
  {
    "city": "Dahmani", 
    "lat": "35.9424", 
    "lng": "8.8284", 
    "country": "Tunisia", 
    "iso2": "TN", 
    "admin_name": "Kef", 
    "capital": "", 
    "population": "27907", 
    "population_proper": "27907"
  }, 
  {
    "city": "El Alia", 
    "lat": "37.1667", 
    "lng": "10.0333", 
    "country": "Tunisia", 
    "iso2": "TN", 
    "admin_name": "Bizerte", 
    "capital": "", 
    "population": "27075", 
    "population_proper": "27075"
  }, 
  {
    "city": "Siliana", 
    "lat": "36.0819", 
    "lng": "9.3747", 
    "country": "Tunisia", 
    "iso2": "TN", 
    "admin_name": "Siliana", 
    "capital": "admin", 
    "population": "26960", 
    "population_proper": "26960"
  }, 
  {
    "city": "Zaghouan", 
    "lat": "36.4028", 
    "lng": "10.1433", 
    "country": "Tunisia", 
    "iso2": "TN", 
    "admin_name": "Zaghouan", 
    "capital": "admin", 
    "population": "20387", 
    "population_proper": "20387"
  }
]